[{"atmID": "NOR51101", "zipCode": 5116, "city": "Ulset", "atmAddress": "\u00c5sane Senter", "atmName": "\u00c5sane ATM", "currency": "NOK, EUR (D\u00f8gn\u00e5pen)", "latitude": 60.466885, "longitude": 5.321219, "country": "Norway"}, {"atmID": "NOR51102", "zipCode": 3024, "city": "Drammen", "atmAddress": "V\u00e5rveien 25", "atmName": "\u00c5ssiden ATM", "currency": "NOK, EUR (D\u00f8gn\u00e5pen)", "latitude": 59.754018, "longitude": 10.145327, "country": "Norway"}, {"atmID": "NOR51103", "zipCode": 5200, "city": "Os", "atmAddress": "Prestgardskogen 2 B", "atmName": "Amfi Senter Os ATM", "currency": "NOK", "latitude": 60.202235, "longitude": 5.456981, "country": "Norway"}, {"atmID": "NOR51104", "zipCode": 4514, "city": "Mandal", "atmAddress": "Marnavn. 33", "atmName": "Amfisenteret ATM", "currency": "NOK", "latitude": 58.028856, "longitude": 7.461044, "country": "Norway"}, {"atmID": "NOR51105", "zipCode": 4836, "city": "Arendal", "atmAddress": "Peder Thomassensgate 12", "atmName": "Arendal ATM", "currency": "NOK, EUR, DKK (D\u00f8gn\u00e5pen)", "latitude": 58.460777, "longitude": 8.765368, "country": "Norway"}, {"atmID": "NOR51106", "zipCode": 1370, "city": "Asker", "atmAddress": "Str\u00f8ket 6", "atmName": "Asker ATM", "currency": "NOK, EUR, SEK", "latitude": 59.835172, "longitude": 10.433937, "country": "Norway"}, {"atmID": "NOR51107", "zipCode": 1370, "city": "Asker", "atmAddress": "Str\u00f8ket 6", "atmName": "Asker ATM", "currency": "NOK, GBP, DKK (D\u00f8gn\u00e5pen)", "latitude": 59.835172, "longitude": 10.433937, "country": "Norway"}, {"atmID": "NOR51108", "zipCode": 1830, "city": "Askim", "atmAddress": "A.B. Aarstensgate 2", "atmName": "Askim ATM", "currency": "NOK, EUR, SEK (D\u00f8gn\u00e5pen)", "latitude": 59.582945, "longitude": 11.160854, "country": "Norway"}, {"atmID": "NOR51109", "zipCode": 191, "city": "Oslo", "atmAddress": "Dronning Eufemias gate 16", "atmName": "Bj\u00f8rvika ATM", "currency": "NOK, EUR (D\u00f8gn\u00e5pen)", "latitude": 59.908226, "longitude": 10.758859, "country": "Norway"}, {"atmID": "NOR51110", "zipCode": 191, "city": "Oslo", "atmAddress": "Dronning Eufemias gate 30", "atmName": "Bj\u00f8rvika ATM", "currency": "NOK, EUR, USD", "latitude": 59.907588, "longitude": 10.759842, "country": "Norway"}, {"atmID": "NOR51111", "zipCode": 1653, "city": "Sellebakk", "atmAddress": "L\u00f8enveien 5", "atmName": "Borge ATM", "currency": "NOK, EUR (D\u00f8gn\u00e5pen)", "latitude": 59.227709, "longitude": 10.994835, "country": "Norway"}, {"atmID": "NOR51112", "zipCode": 1739, "city": "Borgenhaugen", "atmAddress": "Skjebergvn 25", "atmName": "Borgenhaugen ATM", "currency": "NOK (D\u00f8gn\u00e5pen)", "latitude": 59.227709, "longitude": 10.994835, "country": "Norway"}, {"atmID": "NOR51113", "zipCode": 2821, "city": "Gj\u00f8vik", "atmAddress": "Jernbanesvingen 6", "atmName": "CC Mart'n Senter ATM", "currency": "NOK, EUR", "latitude": 60.79993, "longitude": 10.693014, "country": "Norway"}, {"atmID": "NOR51114", "zipCode": 2821, "city": "Gj\u00f8vik", "atmAddress": "Jernbanesvingen 6", "atmName": "CC Mart'n Senter ATM", "currency": "NOK, EUR", "latitude": 60.79993, "longitude": 10.693014, "country": "Norway"}, {"atmID": "NOR51115", "zipCode": 283, "city": "Oslo", "atmAddress": "Lilleakervn. 16", "atmName": "CC Vest Senter ATM", "currency": "NOK, EUR", "latitude": 59.917459, "longitude": 10.635411, "country": "Norway"}, {"atmID": "NOR51116", "zipCode": 283, "city": "Oslo", "atmAddress": "Lilleakervn. 16", "atmName": "CC Vest Senter ATM", "currency": "NOK", "latitude": 59.917459, "longitude": 10.635411, "country": "Norway"}, {"atmID": "NOR51117", "zipCode": 3170, "city": "Sem", "atmAddress": "D\u00f8vlebygget, Semsbyvn. 81", "atmName": "D\u00f8vlesenteret ATM", "currency": "NOK, EUR", "latitude": 59.282762, "longitude": 10.331502, "country": "Norway"}, {"atmID": "NOR51118", "zipCode": 3880, "city": "Dalen", "atmAddress": "Hotellvegen 36", "atmName": "Dalen ATM", "currency": "NOK, EUR (D\u00f8gn\u00e5pen)", "latitude": 59.444593, "longitude": 8.009858, "country": "Norway"}, {"atmID": "NOR51119", "zipCode": 1440, "city": "Dr\u00f8bak", "atmAddress": "Holterveien 2", "atmName": "Dr\u00f8bak ATM", "currency": "NOK, EUR, SEK (D\u00f8gn\u00e5pen)", "latitude": 59.674491, "longitude": 10.657373, "country": "Norway"}, {"atmID": "NOR51120", "zipCode": 3017, "city": "Drammen", "atmAddress": "Bragernes Torg 11", "atmName": "Drammen ATM", "currency": "NOK, SEK, DKK", "latitude": 59.74377, "longitude": 10.205382, "country": "Norway"}, {"atmID": "NOR51121", "zipCode": 3017, "city": "Drammen", "atmAddress": "Bragernes Torg 11", "atmName": "Drammen ATM", "currency": "NOK, EUR (D\u00f8gn\u00e5pen)", "latitude": 59.74377, "longitude": 10.205382, "country": "Norway"}, {"atmID": "NOR51122", "zipCode": 5014, "city": "Bergen", "atmAddress": "Bryggesporen 1", "atmName": "Eiendom Bergen ATM", "currency": "NOK (D\u00f8gn\u00e5pen)", "latitude": 60.395449, "longitude": 5.326479, "country": "Norway"}, {"atmID": "NOR51123", "zipCode": 6800, "city": "F\u00f8rde", "atmAddress": "Storehagen 1", "atmName": "F\u00f8rde ATM", "currency": "NOK, EUR (D\u00f8gn\u00e5pen)", "latitude": 61.452144, "longitude": 5.855769, "country": "Norway"}, {"atmID": "NOR51124", "zipCode": 2900, "city": "Fagernes", "atmAddress": "Jernbanevegen 5", "atmName": "Fagernes ATM", "currency": "NOK, EUR (D\u00f8gn\u00e5pen)", "latitude": 60.986002, "longitude": 9.234146, "country": "Norway"}, {"atmID": "NOR51125", "zipCode": 1364, "city": "Oslo", "atmAddress": "Forneburingen 209", "atmName": "Fornebu ATM", "currency": "NOK, EUR, USD (D\u00f8gn\u00e5pen)", "latitude": 59.893639, "longitude": 10.619933, "country": "Norway"}, {"atmID": "NOR51126", "zipCode": 1364, "city": "Fornebu", "atmAddress": "Snar\u00f8yveien 55", "atmName": "Fornebu senter ATM", "currency": "NOK", "latitude": 59.893639, "longitude": 10.619933, "country": "Norway"}, {"atmID": "NOR51127", "zipCode": 1607, "city": "Fredrikstad", "atmAddress": "Nyg\u00e5rdsgaten 55", "atmName": "Fredrikstad ATM", "currency": "NOK, GBP", "latitude": 59.267439, "longitude": 11.157061, "country": "Norway"}, {"atmID": "NOR51128", "zipCode": 1607, "city": "Fredrikstad", "atmAddress": "Nyg\u00e5rdsgaten 55", "atmName": "Fredrikstad ATM", "currency": "NOK, EUR, SEK (D\u00f8gn\u00e5pen)", "latitude": 59.267439, "longitude": 11.157061, "country": "Norway"}, {"atmID": "NOR51129", "zipCode": 1607, "city": "Fredrikstad", "atmAddress": "Nyg\u00e5rdsgaten 55", "atmName": "Fredrikstad ATM", "currency": "NOK, USD, DKK (D\u00f8gn\u00e5pen)", "latitude": 59.267439, "longitude": 11.157061, "country": "Norway"}, {"atmID": "NOR51130", "zipCode": 5014, "city": "Bergen", "atmAddress": "Torgallmenningen 7", "atmName": "Galleriet Bergen ATM", "currency": "NOK", "latitude": 60.392854, "longitude": 5.323378, "country": "Norway"}, {"atmID": "NOR51131", "zipCode": 2815, "city": "Gj\u00f8vik", "atmAddress": "Fahlstr\u00f8m Plass 1", "atmName": "Gj\u00f8vik ATM", "currency": "NOK, EUR (D\u00f8gn\u00e5pen)", "latitude": 60.795925, "longitude": 10.690478, "country": "Norway"}, {"atmID": "NOR51132", "zipCode": 188, "city": "Oslo", "atmAddress": "Olafiagangen 5", "atmName": "Gr\u00f8nland ATM", "currency": "NOK", "latitude": 59.912839, "longitude": 10.759237, "country": "Norway"}, {"atmID": "NOR51133", "zipCode": 2750, "city": "Gran", "atmAddress": "Storgt. 21", "atmName": "Gran ATM", "currency": "NOK (D\u00f8gn\u00e5pen)", "latitude": 60.357523, "longitude": 10.572227, "country": "Norway"}, {"atmID": "NOR51134", "zipCode": 4876, "city": "Grimstad", "atmAddress": "Henrik Ibsensgt. 12", "atmName": "Grimstad ATM", "currency": "NOK, EUR, DKK (D\u00f8gn\u00e5pen)", "latitude": 58.341901, "longitude": 8.59511, "country": "Norway"}, {"atmID": "NOR51135", "zipCode": 3810, "city": "Gvarv", "atmAddress": "Gvarvgata 45", "atmName": "Gvarv ATM", "currency": "NOK, EUR (D\u00f8gn\u00e5pen)", "latitude": 59.387978, "longitude": 9.175323, "country": "Norway"}, {"atmID": "NOR51136", "zipCode": 3510, "city": "H\u00f8nefoss", "atmAddress": "Kvernberggt. 5", "atmName": "H\u00f8nefoss ATM", "currency": "NOK, EUR (D\u00f8gn\u00e5pen)", "latitude": 60.165178, "longitude": 10.256976, "country": "Norway"}, {"atmID": "NOR51137", "zipCode": 2317, "city": "Hamar", "atmAddress": "Vangsvegen 70", "atmName": "Hamar ATM", "currency": "NOK, EUR (D\u00f8gn\u00e5pen", "latitude": 60.796253, "longitude": 11.080899, "country": "Norway"}, {"atmID": "NOR51138", "zipCode": 2317, "city": "Hamar", "atmAddress": "Vangsvegen 62", "atmName": "Hamar Stadion ATM", "currency": "NOK, EUR", "latitude": 60.796387, "longitude": 11.079799, "country": "Norway"}, {"atmID": "NOR51139", "zipCode": 5525, "city": "Haugesund", "atmAddress": "Haraldsgate 125", "atmName": "Haugesund ATM", "currency": "NOK, GBP, EUR", "latitude": 59.412287, "longitude": 5.270216, "country": "Norway"}, {"atmID": "NOR51140", "zipCode": 5525, "city": "Haugesund", "atmAddress": "Haraldsgate 125", "atmName": "Haugesund ATM", "currency": "NOK, EUR (D\u00f8gn\u00e5pen)", "latitude": 59.412287, "longitude": 5.270216, "country": "Norway"}, {"atmID": "NOR51141", "zipCode": 5053, "city": "Bergen", "atmAddress": "Jonas Liesveg 65", "atmName": "Haukeland Universitetssykehus ATM", "currency": "NOK (D\u00f8gn\u00e5pen)", "latitude": 60.374321, "longitude": 5.354136, "country": "Norway"}, {"atmID": "NOR51142", "zipCode": 3117, "city": "T\u00f8nsberg", "atmAddress": "Heimdalsveien 3", "atmName": "Heimdal ATM", "currency": "NOK (D\u00f8gn\u00e5pen)", "latitude": 59.274312, "longitude": 10.425107, "country": "Norway"}, {"atmID": "NOR51143", "zipCode": 1394, "city": "Nesbru", "atmAddress": "Vogellund 6", "atmName": "Holmensenteret ATM", "currency": "NOK", "latitude": 59.854355, "longitude": 10.488652, "country": "Norway"}, {"atmID": "NOR51144", "zipCode": 3080, "city": "Holmestrand", "atmAddress": "Dr. Gaaruds plass 4", "atmName": "Holmestrand ATM", "currency": "NOK, EUR (D\u00f8gn\u00e5pen)", "latitude": 59.511517, "longitude": 10.21708, "country": "Norway"}, {"atmID": "NOR51145", "zipCode": 3191, "city": "Horten", "atmAddress": "Apotekergata 20", "atmName": "Horten ATM", "currency": "NOK, EUR", "latitude": 59.416303, "longitude": 10.483379, "country": "Norway"}, {"atmID": "NOR51146", "zipCode": 3191, "city": "Horten", "atmAddress": "Apotekergata 20", "atmName": "Horten ATM", "currency": "NOK (D\u00f8gn\u00e5pen)", "latitude": 59.416303, "longitude": 10.483379, "country": "Norway"}, {"atmID": "NOR51147", "zipCode": 2051, "city": "Jessheim", "atmAddress": "Gotaasalleen 7", "atmName": "Jessheim ATM", "currency": "NOK (D\u00f8gn\u00e5pen)", "latitude": 60.140426, "longitude": 11.174463, "country": "Norway"}, {"atmID": "NOR51148", "zipCode": 2051, "city": "Jessheim", "atmAddress": "Gotaasalleen 7", "atmName": "Jessheim ATM", "currency": "NOK, EUR", "latitude": 60.140426, "longitude": 11.174463, "country": "Norway"}, {"atmID": "NOR51149", "zipCode": 21, "city": "Oslo", "atmAddress": "Karl Johans gate 27-31", "atmName": "Karl Johans gate ATM", "currency": "NOK, SEK (D\u00f8gn\u00e5pen)", "latitude": 59.913649, "longitude": 10.740151, "country": "Norway"}, {"atmID": "NOR51150", "zipCode": 21, "city": "Oslo", "atmAddress": "Karl Johans gate 27-31", "atmName": "Karl Johans gate ATM", "currency": "NOK, DKK", "latitude": 59.913649, "longitude": 10.740151, "country": "Norway"}, {"atmID": "NOR51151", "zipCode": 21, "city": "Oslo", "atmAddress": "Karl Johans gate 27-31", "atmName": "Karl Johans gate ATM", "currency": "NOK, USD, GBP", "latitude": 59.913649, "longitude": 10.740151, "country": "Norway"}, {"atmID": "NOR51152", "zipCode": 21, "city": "Oslo", "atmAddress": "Karl Johans gate 27-31", "atmName": "Karl Johans gate ATM", "currency": "NOK, EUR", "latitude": 59.913649, "longitude": 10.740151, "country": "Norway"}, {"atmID": "NOR51153", "zipCode": 21, "city": "Oslo", "atmAddress": "Karl Johans gate 27-31", "atmName": "Karl Johans gate ATM", "currency": "NOK, EUR, USD (D\u00f8gn\u00e5pen)", "latitude": 59.913649, "longitude": 10.740151, "country": "Norway"}, {"atmID": "NOR51154", "zipCode": 3611, "city": "Kongsberg", "atmAddress": "Storgt.16-18", "atmName": "Kongsberg ATM", "currency": "NOK, EUR (D\u00f8gn\u00e5pen)", "latitude": 59.669301, "longitude": 9.651011, "country": "Norway"}, {"atmID": "NOR51155", "zipCode": 2213, "city": "Kongsvinger", "atmAddress": "Storgata 40", "atmName": "Kongsvinger ATM", "currency": "NOK, SEK, EUR D\u00f8gn\u00e5pen)", "latitude": 60.192887, "longitude": 12.000534, "country": "Norway"}, {"atmID": "NOR51156", "zipCode": 2818, "city": "Gj\u00f8vik", "atmAddress": "Kalkveien 11", "atmName": "Kopperud ATM", "currency": "NOK", "latitude": 60.776405, "longitude": 10.675433, "country": "Norway"}, {"atmID": "NOR51157", "zipCode": 4611, "city": "Kristiansand", "atmAddress": "Markens gt. 19", "atmName": "Kristiansand S ATM", "currency": "NOK, DKK, EUR", "latitude": 58.144996, "longitude": 7.993779, "country": "Norway"}, {"atmID": "NOR51158", "zipCode": 1710, "city": "Sarpsborg", "atmAddress": "Tunevn.1a", "atmName": "Lande ATM", "currency": "NOK", "latitude": 59.290883, "longitude": 11.097367, "country": "Norway"}, {"atmID": "NOR51159", "zipCode": 3264, "city": "Larvik", "atmAddress": "Sanden 1", "atmName": "Larvik ATM", "currency": "NOK, SEK,GBP,USD", "latitude": 59.050962, "longitude": 10.023056, "country": "Norway"}, {"atmID": "NOR51160", "zipCode": 3264, "city": "Larvik", "atmAddress": "Sanden 1", "atmName": "Larvik ATM", "currency": "NOK, DKK, EUR (D\u00f8gn\u00e5pen)", "latitude": 59.050962, "longitude": 10.023056, "country": "Norway"}, {"atmID": "NOR51161", "zipCode": 3400, "city": "Lier", "atmAddress": "Hegsbroveien 52", "atmName": "Lierbyen ATM", "currency": "NOK, EUR (D\u00f8gn\u00e5pen)", "latitude": 59.786109, "longitude": 10.245172, "country": "Norway"}, {"atmID": "NOR51162", "zipCode": 2609, "city": "Lillehammer", "atmAddress": "Kirkegaten 72-74", "atmName": "Lillehammer ATM", "currency": "NOK, EUR (D\u00f8gn\u00e5pen)", "latitude": 61.115897, "longitude": 10.462545, "country": "Norway"}, {"atmID": "NOR51163", "zipCode": 2000, "city": "Lillestr\u00f8m", "atmAddress": "Kirkegaten 1", "atmName": "Lillestr\u00f8m ATM", "currency": "NOK, EUR", "latitude": 59.954938, "longitude": 11.04605, "country": "Norway"}, {"atmID": "NOR51164", "zipCode": 2000, "city": "Lillestr\u00f8m", "atmAddress": "Kirkegaten 1", "atmName": "Lillestr\u00f8m ATM", "currency": "NOK", "latitude": 59.954938, "longitude": 11.04605, "country": "Norway"}, {"atmID": "NOR51165", "zipCode": 6701, "city": "M\u00e5l\u00f8y", "atmAddress": "Sj\u00f8gata", "atmName": "M\u00e5l\u00f8y ATM", "currency": "NOK, EUR", "latitude": 61.930786, "longitude": 5.112569, "country": "Norway"}, {"atmID": "NOR51166", "zipCode": 366, "city": "Oslo", "atmAddress": "Kirkeveien 59", "atmName": "Majorstuen ATM", "currency": "NOK, EUR, D\u00f8gn\u00e5pen)", "latitude": 59.929009, "longitude": 10.71638, "country": "Norway"}, {"atmID": "NOR51167", "zipCode": 1530, "city": "Moss", "atmAddress": "Dronningensgate 19", "atmName": "Moss ATM", "currency": "NOK, SEK", "latitude": 59.435594, "longitude": 10.662397, "country": "Norway"}, {"atmID": "NOR51168", "zipCode": 1530, "city": "Moss", "atmAddress": "Dronningensgate 19", "atmName": "Moss ATM", "currency": "NOK, EUR (D\u00f8gn\u00e5pen)", "latitude": 59.435594, "longitude": 10.662397, "country": "Norway"}, {"atmID": "NOR51169", "zipCode": 3120, "city": "T\u00f8nsberg", "atmAddress": "\u00d8rsnesalleen 33", "atmName": "N\u00f8tter\u00f8y ATM", "currency": "NOK, EUR (D\u00f8gn\u00e5pen)", "latitude": 59.252117, "longitude": 10.417429, "country": "Norway"}, {"atmID": "NOR51170", "zipCode": 3269, "city": "Larvik", "atmAddress": "Nansetgt 91", "atmName": "Nanset ATM", "currency": "NOK, EUR (D\u00f8gn\u00e5pen)", "latitude": 59.064794, "longitude": 10.039934, "country": "Norway"}, {"atmID": "NOR51171", "zipCode": 5221, "city": "Nesttun", "atmAddress": "\u00d8stre Nesttunvei 2", "atmName": "Nesttun ATM", "currency": "NOK (D\u00f8gn\u00e5pen)", "latitude": 60.319151, "longitude": 5.35357, "country": "Norway"}, {"atmID": "NOR51172", "zipCode": 3616, "city": "Kongsberg", "atmAddress": "Nytorget", "atmName": "Nytorget ATM", "currency": "NOK (D\u00f8gn\u00e5pen)", "latitude": 59.663924, "longitude": 9.64732, "country": "Norway"}, {"atmID": "NOR51173", "zipCode": 5147, "city": "Fyllingsdalen", "atmAddress": "Folke Bernadottes vei 52", "atmName": "Oasen Senter ATM", "currency": "NOK, EUR", "latitude": 60.349156, "longitude": 5.291106, "country": "Norway"}, {"atmID": "NOR51174", "zipCode": 2670, "city": "Otta", "atmAddress": "Ottatunet, Johan Nyg\u00e5rdsgate 12", "atmName": "Ottatunet Senter ATM", "currency": "NOK,EUR (D\u00f8gn\u00e5pen)", "latitude": 61.771999, "longitude": 9.540484, "country": "Norway"}, {"atmID": "NOR51175", "zipCode": 3179, "city": "\u00c5sg\u00e5rdstrand", "atmAddress": "Grev Wedels gate 44", "atmName": "Paleet senter ATM", "currency": "NOK, EUR (D\u00f8gn\u00e5pen)", "latitude": 59.349699, "longitude": 10.461232, "country": "Norway"}, {"atmID": "NOR51176", "zipCode": 3915, "city": "Porsgrunn", "atmAddress": "Storgata 141", "atmName": "Porsgrunn ATM", "currency": "NOK, EUR (D\u00f8gn\u00e5pen)", "latitude": 59.14035, "longitude": 9.654571, "country": "Norway"}, {"atmID": "NOR51177", "zipCode": 5239, "city": "R\u00e5dal", "atmAddress": "Laguneveien 7", "atmName": "R\u00e5dal ATM", "currency": "NOK, EUR (D\u00f8gn\u00e5pen)", "latitude": 60.29533, "longitude": 5.326546, "country": "Norway"}, {"atmID": "NOR51178", "zipCode": 2071, "city": "R\u00e5holt", "atmAddress": "Gladbakkveien 2c", "atmName": "R\u00e5holt ATM", "currency": "NOK, EUR (D\u00f8gn\u00e5pen)", "latitude": 60.281259, "longitude": 11.172563, "country": "Norway"}, {"atmID": "NOR51179", "zipCode": 2827, "city": "Hunndalen", "atmAddress": "Raufossveien 223", "atmName": "RIMI, Hunndalen ATM", "currency": "NOK (D\u00f8gn\u00e5pen)", "latitude": 60.785801, "longitude": 10.641401, "country": "Norway"}, {"atmID": "NOR51180", "zipCode": 3174, "city": "Revetal", "atmAddress": "Revetal Torvet", "atmName": "Revetal ATM", "currency": "NOK, EUR (D\u00f8gn\u00e5pen)", "latitude": 59.371374, "longitude": 10.266562, "country": "Norway"}, {"atmID": "NOR51181", "zipCode": 27, "city": "Oslo", "atmAddress": "Sognsvannsvn. 20", "atmName": "Rikshospitalet ATM", "currency": "NOK (D\u00f8gn\u00e5pen)", "latitude": 59.947429, "longitude": 10.714449, "country": "Norway"}, {"atmID": "NOR51182", "zipCode": 567, "city": "Oslo", "atmAddress": "D\u00e6lenengata 3", "atmName": "Rodel\u00f8kka ATM", "currency": "NOK", "latitude": 59.92566, "longitude": 10.774707, "country": "Norway"}, {"atmID": "NOR51183", "zipCode": 3211, "city": "Sandefjord", "atmAddress": "R\u00e5dhusgaten 15", "atmName": "Sandefjord ATM", "currency": "GBP, EUR, USD, DKK", "latitude": 59.131568, "longitude": 10.222892, "country": "Norway"}, {"atmID": "NOR51184", "zipCode": 3211, "city": "Sandefjord", "atmAddress": "R\u00e5dhusgaten 15", "atmName": "Sandefjord ATM", "currency": "NOK, SEK (D\u00f8gn\u00e5pen)", "latitude": 59.131568, "longitude": 10.222892, "country": "Norway"}, {"atmID": "NOR51185", "zipCode": 4306, "city": "Sandnes", "atmAddress": "Langgata 2d", "atmName": "Sandnes ATM", "currency": "NOK, EUR, USD (D\u00f8gn\u00e5pen)", "latitude": 58.85056, "longitude": 5.731814, "country": "Norway"}, {"atmID": "NOR51186", "zipCode": 1337, "city": "Sandvika", "atmAddress": "Leif Tronstads plass 6", "atmName": "Sandvika ATM", "currency": "NOK, EUR (D\u00f8gn\u00e5pen)", "latitude": 59.892923, "longitude": 10.523708, "country": "Norway"}, {"atmID": "NOR51187", "zipCode": 1707, "city": "Sarpsborg", "atmAddress": "Torggata 6", "atmName": "Sarpsborg ATM", "currency": "NOK, SEK (D\u00f8gn\u00e5pen)", "latitude": 59.284188, "longitude": 11.112471, "country": "Norway"}, {"atmID": "NOR51188", "zipCode": 1707, "city": "Sarpsborg", "atmAddress": "Torggata 6", "atmName": "Sarpsborg ATM", "currency": "NOK, DKK, EUR, GBP, USD", "latitude": 59.284188, "longitude": 11.112471, "country": "Norway"}, {"atmID": "NOR51189", "zipCode": 1400, "city": "Ski", "atmAddress": "Kirkeveien 1", "atmName": "Ski ATM", "currency": "NOK, EUR, SEK", "latitude": 59.720453, "longitude": 10.836792, "country": "Norway"}, {"atmID": "NOR51190", "zipCode": 3717, "city": "Skien", "atmAddress": "Hesselbergsgate 4", "atmName": "Skien ATM", "currency": "NOK, EUR (D\u00f8gn\u00e5pen)", "latitude": 59.209236, "longitude": 9.606714, "country": "Norway"}, {"atmID": "NOR51191", "zipCode": 5058, "city": "Bergen", "atmAddress": "Solheimsgaten 7C", "atmName": "Solheimsviken ATM", "currency": "NOK, GBP, EUR (D\u00f8gn\u00e5pen)", "latitude": 60.377735, "longitude": 5.331709, "country": "Norway"}, {"atmID": "NOR51192", "zipCode": 5353, "city": "Straume", "atmAddress": "Bild\u00f8yvegen 11", "atmName": "Sotra ATM", "currency": "NOK, EUR (D\u00f8gn\u00e5pen)", "latitude": 60.357554, "longitude": 5.122857, "country": "Norway"}, {"atmID": "NOR51193", "zipCode": 3041, "city": "Drammen", "atmAddress": "Rundtom 2", "atmName": "Statoil Rundtom ATM", "currency": "NOK (D\u00f8gn\u00e5pen)", "latitude": 59.729774, "longitude": 10.224385, "country": "Norway"}, {"atmID": "NOR51194", "zipCode": 4005, "city": "Stavanger", "atmAddress": "Haakon VII's gt 9", "atmName": "Stavanger ATM", "currency": "NOK (D\u00f8gn\u00e5pen)", "latitude": 58.969253, "longitude": 5.730015, "country": "Norway"}, {"atmID": "NOR51195", "zipCode": 4005, "city": "Stavanger", "atmAddress": "Haakon VII's gt 9", "atmName": "Stavanger ATM", "currency": "USD, EUR, GBP, DKK (D\u00f8gn\u00e5pen)", "latitude": 58.969253, "longitude": 5.730015, "country": "Norway"}, {"atmID": "NOR51196", "zipCode": 5401, "city": "Stord", "atmAddress": "Heiane 31", "atmName": "Stord ATM", "currency": "NOK, EUR (D\u00f8gn\u00e5pen)", "latitude": 59.76308, "longitude": 5.454659, "country": "Norway"}, {"atmID": "NOR51197", "zipCode": 2609, "city": "Lillehammer", "atmAddress": "Storgt.56", "atmName": "Storgata ATM", "currency": "NOK, EUR (D\u00f8gn\u00e5pen)", "latitude": 61.114827, "longitude": 10.466304, "country": "Norway"}, {"atmID": "NOR51198", "zipCode": 485, "city": "Oslo", "atmAddress": "Vitaminveien 6", "atmName": "Storo ATM", "currency": "NOK, EUR", "latitude": 59.945724, "longitude": 10.774833, "country": "Norway"}, {"atmID": "NOR51199", "zipCode": 985, "city": "Oslo", "atmAddress": "Stovner Senter 3", "atmName": "Stovner Senter ATM", "currency": "NOK, EUR", "latitude": 59.961193, "longitude": 10.924995, "country": "Norway"}, {"atmID": "NOR51200", "zipCode": 3044, "city": "Drammen", "atmAddress": "Tollbugt 13", "atmName": "Str\u00f8ms\u00f8 ATM", "currency": "NOK", "latitude": 59.738807, "longitude": 10.205084, "country": "Norway"}, {"atmID": "NOR51201", "zipCode": 2609, "city": "Lillehammer", "atmAddress": "Sliperivegen 2a", "atmName": "Strandtorget Senter ATM", "currency": "NOK, EUR", "latitude": 61.114479, "longitude": 10.452187, "country": "Norway"}, {"atmID": "NOR51202", "zipCode": 3116, "city": "T\u00f8nsberg", "atmAddress": "Halfdan Wilhelmsens all\u00e9", "atmName": "Sykehuset i Vestfold ATM", "currency": "NOK (D\u00f8gn\u00e5pen)", "latitude": 59.272071, "longitude": 10.414781, "country": "Norway"}, {"atmID": "NOR51203", "zipCode": 3111, "city": "T\u00f8nsberg", "atmAddress": "M\u00f8llegaten 9", "atmName": "T\u00f8nsberg ATM", "currency": "NOK, EUR (D\u00f8gn\u00e5pen)", "latitude": 59.269273, "longitude": 10.4086, "country": "Norway"}, {"atmID": "NOR51204", "zipCode": 5020, "city": "Bergen", "atmAddress": "Torgallmenningen 2", "atmName": "Torgalmenningen ATM", "currency": "NOK", "latitude": 60.3937, "longitude": 5.325543, "country": "Norway"}, {"atmID": "NOR51205", "zipCode": 5020, "city": "Bergen", "atmAddress": "Torgallmenningen 2", "atmName": "Torgalmenningen ATM", "currency": "EUR, USD, GBP, DKK", "latitude": 60.3937, "longitude": 5.325543, "country": "Norway"}, {"atmID": "NOR51206", "zipCode": 3676, "city": "Notodden", "atmAddress": "Tuvenb\u00f8ygen 2", "atmName": "Tuvensenteret ATM", "currency": "NOK, EUR", "latitude": 59.56626, "longitude": 9.222044, "country": "Norway"}, {"atmID": "NOR51207", "zipCode": 190, "city": "Oslo", "atmAddress": "Schweigaards gt.10", "atmName": "Vaterland, Gr\u00f8nland ATM", "currency": "NOK,DKK (D\u00f8gn\u00e5pen)", "latitude": 59.91168, "longitude": 10.758148, "country": "Norway"}]